Cadena GPS: $PGRMZ,2259,f,3*27

Cadena GPS: $GPRTE,1,1,c,*37

Cadena GPS: $GPRMC,153546,A,4023.3252,N,00337.6608,W,2.9,293.2,230703,2.4,W,A*15

Cadena GPS: $GPRMB,A,,,,,,,,,,,,V,A*1C

Cadena GPS: $GPGGA,153546,4023.3252,N,00337.6608,W,1,12,2.0,688.5,M,52.1,M,,*58

Campos parseo :[$GPGGA, 153546, 4023.3252, N, 00337.6608, W, 1, 12, 2.0, 688.5, M, 52.1, M, , *58]
LatitudPhi: 0.7049167264425015 LongitudLambda: -0.06331496020874788
a 6378388.0 e2 0.00672267 phi 0.7049167264425015
Lambda0 -3.0
Lambda0 (radianes) -0.05235987755982988
e' 0.006768170174587595
N 6387408.9785534
T 0.7237386358840372
C 0.003926448032022249
A -0.008344108647976772
M 4472772.7305526165
UTM Norte: 4471172.717581418
UTM Este : 446723.91119774384
Cadena GPS: $GPGSA,A,3,02,05,10,16,18,23,26,27,28,29,31,39,3.5,2.0,2.8*3D

Cadena GPS: $GPGSV,3,1,12,02,20,044,28,05,02,028,00,10,12,151,22,16,54,315,32*78

Cadena GPS: $GPGSV,3,2,12,18,60,060,30,23,25,121,23,26,84,137,31,27,39,279,24*7E

Cadena GPS: $GPGSV,3,3,12,28,15,186,20,29,11,070,23,31,25,192,22,39,65,090,00*7B

Cadena GPS: $GPGLL,4023.3252,N,00337.6608,W,153546,A,A*59

Cadena GPS: $GPBOD,,T,,M,,*47

Cadena GPS: $PGRME,8.1,M,21.6,M,23.0,M*23

Cadena GPS: $PGRMZ,2259,f,3*27

Cadena GPS: $GPRTE,1,1,c,*37

Cadena GPS: $GPRMC,153548,A,4023.3263,N,00337.6627,W,2.8,277.5,230703,2.4,W,A*18

Cadena GPS: $GPRMB,A,,,,,,,,,,,,V,A*1C

Cadena GPS: $GPGGA,153548,4023.3263,N,00337.6627,W,1,12,2.0,688.3,M,52.1,M,,*5F

Campos parseo :[$GPGGA, 153548, 4023.3263, N, 00337.6627, W, 1, 12, 2.0, 688.3, M, 52.1, M, , *5F]
LatitudPhi: 0.7049170464195311 LongitudLambda: -0.06331551289634435
a 6378388.0 e2 0.00672267 phi 0.7049170464195311
Lambda0 -3.0
Lambda0 (radianes) -0.05235987755982988
e' 0.006768170174587595
N 6387408.985353768
T 0.723739574334498
C 0.003926445894357709
A -0.008344527339564424
M 4472774.76638319
UTM Norte: 4471174.771698392
UTM Este : 446721.23783086543
Cadena GPS: $GPGSA,A,3,02,05,10,16,18,23,26,27,28,29,31,39,3.5,2.0,2.8*3D

Cadena GPS: $GPGSV,3,1,12,02,20,044,27,05,02,028,00,10,12,151,20,16,54,315,33*74

Cadena GPS: $GPGSV,3,2,12,18,60,060,31,23,25,121,24,26,84,137,31,27,39,279,33*7E

Cadena GPS: $GPGSV,3,3,12,28,15,186,19,29,11,070,24,31,25,192,22,39,65,090,00*76

Cadena GPS: $GPGLL,4023.3263,N,00337.6627,W,153548,A,A*58

Cadena GPS: $GPBOD,,T,,M,,*47

Cadena GPS: $PGRME,8.2,M,21.6,M,23.1,M*21

Cadena GPS: $PGRMZ,2258,f,3*26

Cadena GPS: $GPRTE,1,1,c,*37

Cadena GPS: $GPRMC,153550,A,4023.3272,N,00337.6640,W,2.3,303.1,230703,2.4,W,A*1D

Cadena GPS: $GPRMB,A,,,,,,,,,,,,V,A*1C

Cadena GPS: $GPGGA,153550,4023.3272,N,00337.6640,W,1,12,2.0,688.1,M,52.1,M,,*55

Campos parseo :[$GPGGA, 153550, 4023.3272, N, 00337.6640, W, 1, 12, 2.0, 688.1, M, 52.1, M, , *55]
LatitudPhi: 0.7049173082189188 LongitudLambda: -0.06331589105101562
a 6378388.0 e2 0.00672267 phi 0.7049173082189188
Lambda0 -3.0
Lambda0 (radianes) -0.05235987755982988
e' 0.006768170174587595
N 6387408.990917706
T 0.7237403421584345
C 0.003926444145359284
A -0.008344813508297784
M 4472776.432062753
UTM Norte: 4471176.449783822
UTM Este : 446719.4106215203
Cadena GPS: $GPGSA,A,3,02,05,10,16,18,23,26,27,28,29,31,39,3.5,2.0,2.8*3D

Cadena GPS: $GPGSV,3,1,12,02,20,044,25,05,02,028,00,10,12,151,21,16,54,315,34*70

Cadena GPS: $GPGSV,3,2,12,18,60,060,28,23,25,121,24,26,84,137,33,27,39,279,35*72

Cadena GPS: $GPGSV,3,3,12,28,15,186,19,29,11,070,28,31,25,192,22,39,65,090,00*7A

Cadena GPS: $GPGLL,4023.3272,N,00337.6640,W,153550,A,A*50

Cadena GPS: $GPBOD,,T,,M,,*47

Cadena GPS: $PGRME,8.2,M,21.7,M,23.2,M*23

Cadena GPS: $PGRMZ,2257,f,3*29

Cadena GPS: $GPRTE,1,1,c,*37

Cadena GPS: $GPRMC,153552,A,4023.3288,N,00337.6654,W,3.0,297.7,230703,2.4,W,A*17

Cadena GPS: $GPRMB,A,,,,,,,,,,,,V,A*1C

Cadena GPS: $GPGGA,153552,4023.3288,N,00337.6654,W,1,12,2.0,687.7,M,52.1,M,,*5E

Campos parseo :[$GPGGA, 153552, 4023.3288, N, 00337.6654, W, 1, 12, 2.0, 687.7, M, 52.1, M, , *5E]
LatitudPhi: 0.7049177736400526 LongitudLambda: -0.06331629829450774
a 6378388.0 e2 0.00672267 phi 0.7049177736400526
Lambda0 -3.0
Lambda0 (radianes) -0.05235987755982988
e' 0.006768170174587595
N 6387409.000809152
T 0.7237417071806164
C 0.003926441036028384
A -0.008345120387236797
M 4472779.393270876
UTM Norte: 4471179.423897039
UTM Este : 446717.45114351186
Cadena GPS: $GPGSA,A,3,02,05,10,16,18,23,26,27,28,29,31,39,3.5,2.0,2.8*3D

Cadena GPS: $GPGSV,3,1,12,02,20,044,29,05,02,028,00,10,12,151,20,16,54,315,32*7B

Cadena GPS: $GPGSV,3,2,12,18,60,060,30,23,25,121,24,26,84,137,34,27,39,279,35*7C

Cadena GPS: $GPGSV,3,3,12,28,15,186,19,29,11,070,31,31,25,192,24,39,65,090,00*74

Cadena GPS: $GPGLL,4023.3288,N,00337.6654,W,153552,A,A*52

Cadena GPS: $GPBOD,,T,,M,,*47

Cadena GPS: $PGRME,8.3,M,21.7,M,23.3,M*23

Cadena GPS: $PGRMZ,2256,f,3*28

Cadena GPS: $GPRTE,1,1,c,*37

Cadena GPS: $GPRMC,153554,A,4023.3300,N,00337.6671,W,1.9,281.5,230703,2.4,W,A*19

Cadena GPS: $GPRMB,A,,,,,,,,,,,,V,A*1C

Cadena GPS: $GPGGA,153554,4023.3300,N,00337.6671,W,1,12,2.0,687.2,M,52.1,M,,*5B

Campos parseo :[$GPGGA, 153554, 4023.3300, N, 00337.6671, W, 1, 12, 2.0, 687.2, M, 52.1, M, , *5B]
LatitudPhi: 0.704918122705903 LongitudLambda: -0.0633167928044625
a 6378388.0 e2 0.00672267 phi 0.704918122705903
Lambda0 -3.0
Lambda0 (radianes) -0.05235987755982988
e' 0.006768170174587595
N 6387409.008227737
T 0.7237427309488071
C 0.0039264387040299
A -0.008345494559793507
M 4472781.614176978
UTM Norte: 4471181.661010852
UTM Este : 446715.0620217948
Cadena GPS: $GPGSA,A,3,02,05,10,16,18,23,26,27,28,29,31,39,3.5,2.0,2.8*3D

Cadena GPS: $GPGSV,3,1,12,02,20,044,29,05,02,028,00,10,12,151,21,16,54,315,35*7D

Cadena GPS: $GPGSV,3,2,12,18,60,060,33,23,25,121,26,26,84,138,37,27,39,279,35*71

Cadena GPS: $GPGSV,3,3,12,28,15,186,21,29,11,070,29,31,25,192,23,39,65,090,00*71

Cadena GPS: $GPGLL,4023.3300,N,00337.6671,W,153554,A,A*52

Cadena GPS: $GPBOD,,T,,M,,*47

Cadena GPS: $PGRME,8.4,M,21.7,M,23.3,M*24

Cadena GPS: $PGRMZ,2254,f,3*2A

Cadena GPS: $GPRTE,1,1,c,*37

Cadena GPS: $GPRMC,153554,V,,,,,,,,,,N*50

Cadena GPS: $GPRMB,V,,,,,,,,,,,,,N*52

Cadena GPS: $GPRMC,153556,A,4023.3312,N,00337.6681,W,0.0,283.0,230703,2.4,W,A*18

Cadena GPS: $GPRMB,A,,,,,,,,,,,,V,A*1C

Cadena GPS: $GPGGA,153556,4023.3312,N,00337.6681,W,1,12,2.0,686.6,M,52.1,M,,*50

Campos parseo :[$GPGGA, 153556, 4023.3312, N, 00337.6681, W, 1, 12, 2.0, 686.6, M, 52.1, M, , *50]
LatitudPhi: 0.7049184717717536 LongitudLambda: -0.06331708369267115
a 6378388.0 e2 0.00672267 phi 0.7049184717717536
Lambda0 -3.0
Lambda0 (radianes) -0.05235987755982988
e' 0.006768170174587595
N 6387409.015646323
T 0.7237437547183305
C 0.003926436372031151
A -0.008345713640694042
M 4472783.835083089
UTM Norte: 4471183.891094393
UTM Este : 446713.6631473205
Cadena GPS: $GPGSA,A,3,02,05,10,16,18,23,26,27,28,29,31,39,3.5,2.0,2.8*3D

Cadena GPS: $GPGSV,3,1,12,02,20,044,26,05,02,028,00,10,12,151,20,16,54,315,34*72

Cadena GPS: $GPGSV,3,2,12,18,60,060,36,23,25,121,25,26,84,138,37,27,39,279,34*76

Cadena GPS: $GPGSV,3,3,12,28,15,186,20,29,11,070,26,31,25,192,23,39,65,090,00*7F

Cadena GPS: $GPGLL,4023.3312,N,00337.6681,W,153556,A,A*5C

Cadena GPS: $GPBOD,,T,,M,,*47

Cadena GPS: $PGRME,8.5,M,21.7,M,23.3,M*25

Cadena GPS: $PGRMZ,2253,f,3*2D

Cadena GPS: $GPRTE,1,1,c,*37

Cadena GPS: $GPRMC,153558,A,4023.3327,N,00337.6693,W,2.2,302.5,230703,2.4,W,A*1E

Cadena GPS: $GPRMB,A,,,,,,,,,,,,V,A*1C

Cadena GPS: $GPGGA,153558,4023.3327,N,00337.6693,W,1,12,2.0,686.0,M,52.1,M,,*5D

Campos parseo :[$GPGGA, 153558, 4023.3327, N, 00337.6693, W, 1, 12, 2.0, 686.0, M, 52.1, M, , *5D]
LatitudPhi: 0.7049189081040664 LongitudLambda: -0.06331743275852156
a 6378388.0 e2 0.00672267 phi 0.7049189081040664
Lambda0 -3.0
Lambda0 (radianes) -0.05235987755982988
e' 0.006768170174587595
N 6387409.024919557
T 0.7237450344321068
C 0.003926433457032345
A -0.008345976413677972
M 4472786.611215737
UTM Norte: 4471186.678196979
UTM Este : 446711.9852872306
Cadena GPS: $GPGSA,A,3,02,05,10,16,18,23,26,27,28,29,31,39,3.5,2.0,2.8*3D

Cadena GPS: $GPGSV,3,1,12,02,20,044,27,05,02,028,00,10,12,151,20,16,54,315,36*71

Cadena GPS: $GPGSV,3,2,12,18,60,060,35,23,25,121,23,26,84,138,36,27,39,279,33*75

Cadena GPS: $GPGSV,3,3,12,28,14,185,21,29,11,070,29,31,25,192,24,39,65,090,00*74

Cadena GPS: $GPGLL,4023.3327,N,00337.6693,W,153558,A,A*57

Cadena GPS: $GPBOD,,T,,M,,*47

Cadena GPS: $PGRME,8.7,M,21.6,M,23.3,M*26

Cadena GPS: $PGRMZ,2251,f,3*2F

Cadena GPS: $GPRTE,1,1,c,*37

Cadena GPS: $GPRMC,153600,A,4023.3337,N,00337.6706,W,2.0,269.0,230703,2.4,W,A*17

Cadena GPS: $GPRMB,A,,,,,,,,,,,,V,A*1C

Cadena GPS: $GPGGA,153600,4023.3337,N,00337.6706,W,1,12,2.0,685.6,M,52.1,M,,*5A

Campos parseo :[$GPGGA, 153600, 4023.3337, N, 00337.6706, W, 1, 12, 2.0, 685.6, M, 52.1, M, , *5A]
LatitudPhi: 0.7049191989922753 LongitudLambda: -0.06331781091319282
a 6378388.0 e2 0.00672267 phi 0.7049191989922753
Lambda0 -3.0
Lambda0 (radianes) -0.05235987755982988
e' 0.006768170174587595
N 6387409.031101714
T 0.7237458875757816
C 0.003926431513699575
A -0.008346262375082052
M 4472788.461970843
UTM Norte: 4471188.5412880285
UTM Este : 446710.1593965357
Cadena GPS: $GPGSA,A,3,02,05,10,16,18,23,26,27,28,29,31,39,3.5,2.0,2.8*3D

Cadena GPS: $GPGSV,3,1,12,02,20,044,28,05,02,028,00,10,12,151,19,16,54,315,35*77

Cadena GPS: $GPGSV,3,2,12,18,60,060,35,23,25,121,23,26,84,138,34,27,39,279,24*71

Cadena GPS: $GPGSV,3,3,12,28,14,185,21,29,10,070,27,31,25,192,31,39,65,090,00*7F

Cadena GPS: $GPGLL,4023.3337,N,00337.6706,W,153600,A,A*55

Cadena GPS: $GPBOD,,T,,M,,*47

Cadena GPS: $PGRME,8.8,M,21.6,M,23.4,M*2E

Cadena GPS: $PGRMZ,2249,f,3*26

Cadena GPS: $GPRTE,1,1,c,*37

Cadena GPS: $GPRMC,153602,A,4023.3338,N,00337.6723,W,0.0,259.6,230703,2.4,W,A*1A

Cadena GPS: $GPRMB,A,,,,,,,,,,,,V,A*1C

Cadena GPS: $GPGGA,153602,4023.3338,N,00337.6723,W,1,12,2.0,685.4,M,52.1,M,,*52

Campos parseo :[$GPGGA, 153602, 4023.3338, N, 00337.6723, W, 1, 12, 2.0, 685.4, M, 52.1, M, , *52]
LatitudPhi: 0.7049192280810961 LongitudLambda: -0.06331830542314755
a 6378388.0 e2 0.00672267 phi 0.7049192280810961
Lambda0 -3.0
Lambda0 (radianes) -0.05235987755982988
e' 0.006768170174587595
N 6387409.03171993
T 0.7237459728901996
C 0.003926431319366289
A -0.008346638818915566
M 4472788.647046354
UTM Norte: 4471188.743368095
UTM Este : 446707.7558290363
Cadena GPS: $GPGSA,A,3,02,05,10,16,18,23,26,27,28,29,31,39,3.5,2.0,2.8*3D

Cadena GPS: $GPGSV,3,1,12,02,20,044,27,05,02,028,00,10,12,151,19,16,54,315,32*7F

Cadena GPS: $GPGSV,3,2,12,18,60,060,36,23,25,121,22,26,84,138,34,27,39,279,23*74

Cadena GPS: $GPGSV,3,3,12,28,14,185,20,29,10,070,28,31,25,192,26,39,65,090,00*77

Cadena GPS: $GPGLL,4023.3338,N,00337.6723,W,153602,A,A*5F

Cadena GPS: $GPBOD,,T,,M,,*47

Cadena GPS: $PGRME,8.9,M,21.7,M,23.4,M*2E

Cadena GPS: $PGRMZ,2249,f,3*26

Cadena GPS: $GPRTE,1,1,c,*37

Cadena GPS: $GPRMC,153604,A,4023.3341,N,00337.6734,W,0.0,259.6,230703,2.4,W,A*14

Cadena GPS: $GPRMB,A,,,,,,,,,,,,V,A*1C

Cadena GPS: $GPGGA,153604,4023.3341,N,00337.6734,W,1,12,2.0,685.3,M,52.1,M,,*5B

Campos parseo :[$GPGGA, 153604, 4023.3341, N, 00337.6734, W, 1, 12, 2.0, 685.3, M, 52.1, M, , *5B]
LatitudPhi: 0.7049193153475587 LongitudLambda: -0.06331862540017709
a 6378388.0 e2 0.00672267 phi 0.7049193153475587
Lambda0 -3.0
Lambda0 (radianes) -0.05235987755982988
e' 0.006768170174587595
N 6387409.0335745765
T 0.7237462288335101
C 0.003926430736366418
A -0.008346881914189162
M 4472789.202272886
UTM Norte: 4471189.3094280455
UTM Este : 446706.20367072796
Cadena GPS: $GPGSA,A,3,02,05,10,16,18,23,26,27,28,29,31,39,3.5,2.0,2.8*3D

Cadena GPS: $GPGSV,3,1,12,02,20,044,32,05,02,028,00,10,12,151,18,16,54,315,27*7E

Cadena GPS: $GPGSV,3,2,12,18,60,060,34,23,25,121,21,26,84,138,24,27,39,279,29*7E

Cadena GPS: $GPGSV,3,3,12,28,14,185,19,29,10,070,29,31,25,192,24,39,65,090,00*7E

Cadena GPS: $GPGLL,4023.3341,N,00337.6734,W,153604,A,A*51

Cadena GPS: $GPBOD,,T,,M,,*47

Cadena GPS: $PGRME,9.0,M,21.8,M,23.6,M*2B

Cadena GPS: $PGRMZ,2248,f,3*27

Cadena GPS: $GPRTE,1,1,c,*37

Cadena GPS: $GPRMC,153604,V,,,,,,,,,,N*56

Cadena GPS: $GPRMB,V,,,,,,,,,,,,,N*52

Cadena GPS: $GPRMC,153606,A,4023.3343,N,00337.6736,W,0.0,259.6,230703,2.4,W,A*16

Cadena GPS: $GPRMB,A,,,,,,,,,,,,V,A*1C

Cadena GPS: $GPGGA,153606,4023.3343,N,00337.6736,W,1,12,2.0,685.2,M,52.1,M,,*58

Campos parseo :[$GPGGA, 153606, 4023.3343, N, 00337.6736, W, 1, 12, 2.0, 685.2, M, 52.1, M, , *58]
LatitudPhi: 0.7049193735252004 LongitudLambda: -0.06331868357781882
a 6378388.0 e2 0.00672267 phi 0.7049193735252004
Lambda0 -3.0
Lambda0 (radianes) -0.05235987755982988
e' 0.006768170174587595
N 6387409.034811009
T 0.7237463994624299
C 0.003926430347699828
A -0.008346925812875257
M 4472789.572423909
UTM Norte: 4471189.681443762
UTM Este : 446705.9233710777
Cadena GPS: $GPGSA,A,3,02,05,10,16,18,23,26,27,28,29,31,39,3.5,2.0,2.8*3D

Cadena GPS: $GPGSV,3,1,12,02,20,044,31,05,02,028,00,10,12,151,18,16,54,315,27*7D

Cadena GPS: $GPGSV,3,2,12,18,60,060,28,23,25,121,21,26,84,138,23,27,39,279,29*74

Cadena GPS: $GPGSV,3,3,12,28,14,185,19,29,10,070,27,31,25,192,23,39,65,090,00*77

Cadena GPS: $GPGLL,4023.3343,N,00337.6736,W,153606,A,A*53

Cadena GPS: $GPBOD,,T,,M,,*47

Cadena GPS: $PGRME,9.1,M,21.9,M,23.7,M*2A

Cadena GPS: $PGRMZ,2248,f,3*27

Cadena GPS: $GPRTE,1,1,c,*37

Cadena GPS: $GPRMC,153608,A,4023.3343,N,00337.6736,W,0.0,259.6,230703,2.4,W,A*18

Cadena GPS: $GPRMB,A,,,,,,,,,,,,V,A*1C

Cadena GPS: $GPGGA,153608,4023.3343,N,00337.6736,W,1,12,2.0,685.2,M,52.1,M,,*56

Campos parseo :[$GPGGA, 153608, 4023.3343, N, 00337.6736, W, 1, 12, 2.0, 685.2, M, 52.1, M, , *56]
LatitudPhi: 0.7049193735252004 LongitudLambda: -0.06331868357781882
a 6378388.0 e2 0.00672267 phi 0.7049193735252004
Lambda0 -3.0
Lambda0 (radianes) -0.05235987755982988
e' 0.006768170174587595
N 6387409.034811009
T 0.7237463994624299
C 0.003926430347699828
A -0.008346925812875257
M 4472789.572423909
UTM Norte: 4471189.681443762
UTM Este : 446705.9233710777
Cadena GPS: $GPGSA,A,3,02,05,10,16,18,23,26,27,28,29,31,39,3.5,2.0,2.8*3D

Cadena GPS: $GPGSV,3,1,12,02,20,044,23,05,02,028,00,10,12,151,18,16,54,315,26*7F

Cadena GPS: $GPGSV,3,2,12,18,60,060,23,23,25,121,19,26,84,138,24,27,39,279,31*7A

Cadena GPS: $GPGSV,3,3,12,28,14,185,18,29,10,070,20,31,25,192,21,39,65,090,00*73

Cadena GPS: $GPGLL,4023.3343,N,00337.6736,W,153608,A,A*5D

Cadena GPS: $GPBOD,,T,,M,,*47

Cadena GPS: $PGRME,9.2,M,21.9,M,23.8,M*26

Cadena GPS: $PGRMZ,2248,f,3*27

Cadena GPS: $GPRTE,1,1,c,*37

Cadena GPS: $GPRMC,153610,A,4023.3342,N,00337.6747,W,0.0,259.6,230703,2.4,W,A*16

Cadena GPS: $GPRMB,A,,,,,,,,,,,,V,A*1C

Cadena GPS: $GPGGA,153610,4023.3342,N,00337.6747,W,1,12,12.4,685.2,M,52.1,M,,*6D

Campos parseo :[$GPGGA, 153610, 4023.3342, N, 00337.6747, W, 1, 12, 12.4, 685.2, M, 52.1, M, , *6D]
LatitudPhi: 0.7049193444363795 LongitudLambda: -0.06331900355484833
a 6378388.0 e2 0.00672267 phi 0.7049193444363795
Lambda0 -3.0
Lambda0 (radianes) -0.05235987755982988
e' 0.006768170174587595
N 6387409.034192793
T 0.7237463141479653
C 0.003926430542033124
A -0.008347169734360681
M 4472789.387348397
UTM Norte: 4471189.507490949
UTM Este : 446704.3659578951
Cadena GPS: $GPGSA,A,2,02,05,08,10,16,18,23,26,27,28,29,39,12.5,12.4,1.0*38

Cadena GPS: $GPGSV,3,1,12,02,20,044,20,05,02,028,00,08,08,268,00,10,11,151,00*7F

Cadena GPS: $GPGSV,3,2,12,16,54,315,26,18,60,060,21,23,25,121,19,26,84,138,23*7B

Cadena GPS: $GPGSV,3,3,12,27,39,279,27,28,14,185,18,29,10,070,19,39,65,090,00*73

Cadena GPS: $GPGLL,4023.3342,N,00337.6747,W,153610,A,A*53

Cadena GPS: $GPBOD,,T,,M,,*47

Cadena GPS: $PGRME,9.3,M,22.1,M,24.0,M*23

Cadena GPS: $PGRMZ,2248,f,2*26

Cadena GPS: $GPRTE,1,1,c,*37

Cadena GPS: $GPRMC,153612,A,4023.3351,N,00337.6752,W,0.0,259.6,230703,2.4,W,A*12

Cadena GPS: $GPRMB,A,,,,,,,,,,,,V,A*1C

Cadena GPS: $GPGGA,153612,4023.3351,N,00337.6752,W,1,12,2.0,685.8,M,52.1,M,,*56

Campos parseo :[$GPGGA, 153612, 4023.3351, N, 00337.6752, W, 1, 12, 2.0, 685.8, M, 52.1, M, , *56]
LatitudPhi: 0.7049196062357672 LongitudLambda: -0.06331914899895269
a 6378388.0 e2 0.00672267 phi 0.7049196062357672
Lambda0 -3.0
Lambda0 (radianes) -0.05235987755982988
e' 0.006768170174587595
N 6387409.039756735
T 0.7237470819784791
C 0.003926428793033394
A -0.008347278654754646
M 4472791.053027999
UTM Norte: 4471191.177543579
UTM Este : 446703.67046433827
Cadena GPS: $GPGSA,A,3,02,05,10,16,18,23,26,27,28,29,31,39,3.5,2.0,2.8*3D

Cadena GPS: $GPGSV,3,1,12,02,20,044,19,05,02,028,00,10,12,151,16,16,54,315,24*7A

Cadena GPS: $GPGSV,3,2,12,18,60,060,20,23,25,121,18,26,84,138,22,27,39,279,22*7C

Cadena GPS: $GPGSV,3,3,12,28,14,185,17,29,10,070,14,31,25,192,19,39,65,090,00*70

Cadena GPS: $GPGLL,4023.3351,N,00337.6752,W,153612,A,A*57

Cadena GPS: $GPBOD,,T,,M,,*47

Cadena GPS: $PGRME,9.4,M,22.3,M,24.2,M*24

Cadena GPS: $PGRMZ,2250,f,3*2E

Cadena GPS: $GPRTE,1,1,c,*37

Cadena GPS: $GPRMC,153612,V,,,,,,,,,,N*51

Cadena GPS: $GPRMB,V,,,,,,,,,,,,,N*52

Cadena GPS: $GPRMC,153614,A,4023.3349,N,00337.6755,W,0.0,259.6,230703,2.4,W,A*1A

Cadena GPS: $GPRMB,A,,,,,,,,,,,,V,A*1C

Cadena GPS: $GPGGA,153614,4023.3349,N,00337.6755,W,1,12,3.5,685.8,M,52.1,M,,*5A

Campos parseo :[$GPGGA, 153614, 4023.3349, N, 00337.6755, W, 1, 12, 3.5, 685.8, M, 52.1, M, , *5A]
LatitudPhi: 0.7049195480581255 LongitudLambda: -0.06331923626541527
a 6378388.0 e2 0.00672267 phi 0.7049195480581255
Lambda0 -3.0
Lambda0 (radianes) -0.05235987755982988
e' 0.006768170174587595
N 6387409.038520304
T 0.7237469113494113
C 0.003926429181700014
A -0.008347345535587419
M 4472790.682876976
UTM Norte: 4471190.810550868
UTM Este : 446703.2434460239
Cadena GPS: $GPGSA,A,2,02,05,08,10,16,18,23,26,27,28,31,39,3.6,3.5,1.0*33

Cadena GPS: $GPGSV,3,1,12,02,20,044,16,05,02,028,00,08,08,268,00,10,11,151,00*7A

Cadena GPS: $GPGSV,3,2,12,16,54,315,18,18,60,060,16,23,25,121,00,26,84,138,20*79

Cadena GPS: $GPGSV,3,3,12,27,39,279,17,28,14,185,13,31,25,192,15,39,65,090,00*75

Cadena GPS: $GPGLL,4023.3349,N,00337.6755,W,153614,A,A*5F

Cadena GPS: $GPBOD,,T,,M,,*47

Cadena GPS: $PGRME,9.4,M,22.4,M,24.3,M*22

Cadena GPS: $PGRMZ,2250,f,2*2F

Cadena GPS: $GPRTE,1,1,c,*37

Cadena GPS: $GPRMC,153614,V,,,,,,,,,,N*57

Cadena GPS: $GPRMB,V,,,,,,,,,,,,,N*52

Cadena GPS: $GPRMC,153618,A,4023.3336,N,00337.6769,W,0.0,259.6,230703,2.4,W,A*11

Cadena GPS: $GPRMB,A,,,,,,,,,,,,V,A*1C

Cadena GPS: $GPGGA,153618,4023.3336,N,00337.6769,W,1,12,3.5,685.7,M,52.1,M,,*5E

Campos parseo :[$GPGGA, 153618, 4023.3336, N, 00337.6769, W, 1, 12, 3.5, 685.7, M, 52.1, M, , *5E]
LatitudPhi: 0.7049191699034543 LongitudLambda: -0.06331964350890741
a 6378388.0 e2 0.00672267 phi 0.7049191699034543
Lambda0 -3.0
Lambda0 (radianes) -0.05235987755982988
e' 0.006768170174587595
N 6387409.030483498
T 0.7237458022613722
C 0.003926431708032863
A -0.008347658403679313
M 4472788.276895331
UTM Norte: 4471188.419573148
UTM Este : 446701.24587578943
Cadena GPS: $GPGSA,A,2,02,05,08,10,16,18,23,26,27,29,31,39,3.6,3.5,1.0*32

Cadena GPS: $GPGSV,3,1,12,02,21,044,00,05,02,028,00,08,08,268,00,10,12,151,11*7F

Cadena GPS: $GPGSV,3,2,12,16,54,315,14,18,60,060,08,23,25,121,00,26,84,138,18*71

Cadena GPS: $GPGSV,3,3,12,27,39,279,12,29,10,070,06,31,25,192,14,39,65,090,00*7B

Cadena GPS: $GPGLL,4023.3336,N,00337.6769,W,153618,A,A*54

Cadena GPS: $GPBOD,,T,,M,,*47

Cadena GPS: $PGRME,9.4,M,22.4,M,24.3,M*22

Cadena GPS: $PGRMZ,2250,f,2*2F

Cadena GPS: $GPRTE,1,1,c,*37

Cadena GPS: $GPRMC,153620,A,4023.3329,N,00337.6776,W,0.0,259.6,230703,2.4,W,A*1A

Cadena GPS: $GPRMB,A,,,,,,,,,,,,V,A*1C

Cadena GPS: $GPGGA,153620,4023.3329,N,00337.6776,W,1,12,3.5,685.7,M,52.1,M,,*55

Campos parseo :[$GPGGA, 153620, 4023.3329, N, 00337.6776, W, 1, 12, 3.5, 685.7, M, 52.1, M, , *55]
LatitudPhi: 0.7049189662817081 LongitudLambda: -0.06331984713065347
a 6378388.0 e2 0.00672267 phi 0.7049189662817081
Lambda0 -3.0
Lambda0 (radianes) -0.05235987755982988
e' 0.006768170174587595
N 6387409.026155989
T 0.7237452050607674
C 0.003926433068365806
A -0.008347814941090482
M 4472786.981366756
UTM Norte: 4471187.131582842
UTM Este : 446700.24643324804
Cadena GPS: $GPGSA,A,2,02,05,08,10,16,18,23,26,27,28,31,39,3.6,3.5,1.0*33

Cadena GPS: $GPGSV,3,1,12,02,21,044,00,05,02,028,00,08,08,268,00,10,12,151,10*7E

Cadena GPS: $GPGSV,3,2,12,16,54,315,14,18,60,060,03,23,25,121,00,26,84,138,18*7A

Cadena GPS: $GPGSV,3,3,12,27,39,279,12,28,14,185,04,31,25,192,14,39,65,090,00*77

Cadena GPS: $GPGLL,4023.3329,N,00337.6776,W,153620,A,A*5F

Cadena GPS: $GPBOD,,T,,M,,*47

Cadena GPS: $PGRME,9.4,M,22.4,M,24.3,M*22

Cadena GPS: $PGRMZ,2250,f,2*2F

Cadena GPS: $GPRTE,1,1,c,*37

Cadena GPS: $GPRMC,153622,A,4023.3323,N,00337.6782,W,0.0,259.6,230703,2.4,W,A*19

Cadena GPS: $GPRMB,A,,,,,,,,,,,,V,A*1C

Cadena GPS: $GPGGA,153622,4023.3323,N,00337.6782,W,1,12,3.5,685.7,M,52.1,M,,*56

Campos parseo :[$GPGGA, 153622, 4023.3323, N, 00337.6782, W, 1, 12, 3.5, 685.7, M, 52.1, M, , *56]
LatitudPhi: 0.704918791748783 LongitudLambda: -0.06332002166357868
a 6378388.0 e2 0.00672267 phi 0.704918791748783
Lambda0 -3.0
Lambda0 (radianes) -0.05235987755982988
e' 0.006768170174587595
N 6387409.022446695
T 0.7237446931748963
C 0.0039264342343654
A -0.008347949116056842
M 4472785.8709136965
UTM Norte: 4471186.02759126
UTM Este : 446699.38976794196
Cadena GPS: $GPGSA,A,2,02,05,08,10,16,18,23,26,27,28,31,40,3.6,3.5,1.0*3D

Cadena GPS: $GPGSV,3,1,12,02,21,044,00,05,02,028,00,08,08,268,00,10,12,151,11*7F

Cadena GPS: $GPGSV,3,2,12,16,55,315,00,18,60,061,00,23,25,121,00,26,84,138,16*72

Cadena GPS: $GPGSV,3,3,12,27,38,278,00,28,15,186,00,31,25,192,14,40,65,090,00*7C

Cadena GPS: $GPGLL,4023.3323,N,00337.6782,W,153622,A,A*5C

Cadena GPS: $GPBOD,,T,,M,,*47

Cadena GPS: $PGRME,9.4,M,22.4,M,24.3,M*22

Cadena GPS: $PGRMZ,2250,f,2*2F

Cadena GPS: $GPRTE,1,1,c,*37

Cadena GPS: $GPRMC,153624,A,4023.3317,N,00337.6789,W,0.0,259.6,230703,2.4,W,A*13

Cadena GPS: $GPRMB,A,,,,,,,,,,,,V,A*1C

Cadena GPS: $GPGGA,153624,4023.3317,N,00337.6789,W,1,12,3.5,685.7,M,52.1,M,,*5C

Campos parseo :[$GPGGA, 153624, 4023.3317, N, 00337.6789, W, 1, 12, 3.5, 685.7, M, 52.1, M, , *5C]
LatitudPhi: 0.7049186172158579 LongitudLambda: -0.06332022528532474
a 6378388.0 e2 0.00672267 phi 0.7049186172158579
Lambda0 -3.0
Lambda0 (radianes) -0.05235987755982988
e' 0.006768170174587595
N 6387409.018737401
T 0.7237441812893581
C 0.003926435400364928
A -0.00834810544697845
M 4472784.7604606375
UTM Norte: 4471184.924604487
UTM Este : 446698.391638715
Cadena GPS: $GPGSA,A,2,02,05,08,10,16,18,23,26,27,28,31,40,3.6,3.5,1.0*3D

Cadena GPS: $GPGSV,3,1,12,02,21,044,00,05,02,028,00,08,08,268,00,10,11,151,00*7C

Cadena GPS: $GPGSV,3,2,12,16,54,315,10,18,60,061,00,23,25,121,00,26,84,138,14*70

Cadena GPS: $GPGSV,3,3,12,27,39,279,11,28,15,186,00,31,25,192,14,40,65,090,00*7C

Cadena GPS: $GPGLL,4023.3317,N,00337.6789,W,153624,A,A*56

Cadena GPS: $GPBOD,,T,,M,,*47

Cadena GPS: $PGRME,9.4,M,22.4,M,24.3,M*22

Cadena GPS: $PGRMZ,2250,f,2*2F

Cadena GPS: $GPRTE,1,1,c,*37

Cadena GPS: $GPRMC,153626,A,4023.3310,N,00337.6796,W,0.0,259.6,230703,2.4,W,A*18

Cadena GPS: $GPRMB,A,,,,,,,,,,,,V,A*1C

Cadena GPS: $GPGGA,153626,4023.3310,N,00337.6796,W,1,12,3.5,685.7,M,52.1,M,,*57

Campos parseo :[$GPGGA, 153626, 4023.3310, N, 00337.6796, W, 1, 12, 3.5, 685.7, M, 52.1, M, , *57]
LatitudPhi: 0.7049184135941118 LongitudLambda: -0.0633204289070708
a 6378388.0 e2 0.00672267 phi 0.7049184135941118
Lambda0 -3.0
Lambda0 (radianes) -0.05235987755982988
e' 0.006768170174587595
N 6387409.014409892
T 0.7237435840899838
C 0.0039264367606976274
A -0.008348261984538363
M 4472783.464932069
UTM Norte: 4471183.636614559
UTM Este : 446697.39219522645
Cadena GPS: $GPGSA,A,2,02,05,08,10,16,18,23,26,27,28,31,40,3.6,3.5,1.0*3D

Cadena GPS: $GPGSV,3,1,12,02,21,044,00,05,02,028,00,08,08,268,00,10,12,151,14*7A

Cadena GPS: $GPGSV,3,2,12,16,54,315,10,18,60,061,00,23,25,121,00,26,84,138,13*77

Cadena GPS: $GPGSV,3,3,12,27,39,279,11,28,15,186,00,31,25,192,14,40,65,090,00*7C

Cadena GPS: $GPGLL,4023.3310,N,00337.6796,W,153626,A,A*5D

Cadena GPS: $GPBOD,,T,,M,,*47

Cadena GPS: $PGRME,9.4,M,22.4,M,24.3,M*22

Cadena GPS: $PGRMZ,2250,f,2*2F

Cadena GPS: $GPRTE,1,1,c,*37

Cadena GPS: $GPRMC,153628,A,4023.3304,N,00337.6803,W,0.0,259.6,230703,2.4,W,A*10

Cadena GPS: $GPRMB,A,,,,,,,,,,,,V,A*1C

Cadena GPS: $GPGGA,153628,4023.3304,N,00337.6803,W,1,12,3.5,685.7,M,52.1,M,,*5F

Campos parseo :[$GPGGA, 153628, 4023.3304, N, 00337.6803, W, 1, 12, 3.5, 685.7, M, 52.1, M, , *5F]
LatitudPhi: 0.7049182390611864 LongitudLambda: -0.06332063252881687
a 6378388.0 e2 0.00672267 phi 0.7049182390611864
Lambda0 -3.0
Lambda0 (radianes) -0.05235987755982988
e' 0.006768170174587595
N 6387409.010700598
T 0.7237430722051666
C 0.003926437926697014
A -0.008348418315555372
M 4472782.354479014
UTM Norte: 4471182.53362805
UTM Este : 446696.39406539197
Cadena GPS: $GPGSA,A,2,02,05,08,10,16,18,23,26,27,28,31,40,3.6,3.5,1.0*3D

Cadena GPS: $GPGSV,3,1,12,02,21,044,00,05,02,028,00,08,08,268,00,10,12,151,15*7B

Cadena GPS: $GPGSV,3,2,12,16,54,315,10,18,60,061,00,23,25,121,00,26,84,138,13*77

Cadena GPS: $GPGSV,3,3,12,27,39,279,12,28,15,186,00,31,25,192,14,40,65,090,00*7F

Cadena GPS: $GPGLL,4023.3304,N,00337.6803,W,153628,A,A*55

Cadena GPS: $GPBOD,,T,,M,,*47

Cadena GPS: $PGRME,9.4,M,22.4,M,24.3,M*22

Cadena GPS: $PGRMZ,2250,f,2*2F

Cadena GPS: $GPRTE,1,1,c,*37

Cadena GPS: $GPRMC,153628,V,,,,,,,,,,N*58

Cadena GPS: $GPRMB,V,,,,,,,,,,,,,N*52

Cadena GPS: $GPRMC,153630,A,4023.3298,N,00337.6810,W,0.0,259.6,230703,2.4,W,A*1F

Cadena GPS: $GPRMB,A,,,,,,,,,,,,V,A*1C

Cadena GPS: $GPGGA,153630,4023.3298,N,00337.6810,W,1,12,3.5,685.7,M,52.1,M,,*50

Campos parseo :[$GPGGA, 153630, 4023.3298, N, 00337.6810, W, 1, 12, 3.5, 685.7, M, 52.1, M, , *50]
LatitudPhi: 0.7049180645282613 LongitudLambda: -0.06332083615056293
a 6378388.0 e2 0.00672267 phi 0.7049180645282613
Lambda0 -3.0
Lambda0 (radianes) -0.05235987755982988
e' 0.006768170174587595
N 6387409.006991305
T 0.723742560320683
C 0.003926439092696332
A -0.00834857464661818
M 4472781.244025961
UTM Norte: 4471181.430641672
UTM Este : 446695.3959352658
Cadena GPS: $GPGSA,A,2,02,05,08,10,16,18,23,26,27,28,31,40,3.6,3.5,1.0*3D

Cadena GPS: $GPGSV,3,1,12,02,21,044,00,05,02,028,00,08,08,268,00,10,12,151,14*7A

Cadena GPS: $GPGSV,3,2,12,16,54,315,10,18,60,061,00,23,25,121,00,26,84,138,13*77

Cadena GPS: $GPGSV,3,3,12,27,39,279,11,28,15,186,00,31,25,192,14,40,65,090,00*7C

Cadena GPS: $GPGLL,4023.3298,N,00337.6810,W,153630,A,A*5A

Cadena GPS: $GPBOD,,T,,M,,*47

Cadena GPS: $PGRME,9.4,M,22.4,M,24.3,M*22

Cadena GPS: $PGRMZ,2250,f,2*2F

Cadena GPS: $GPRTE,1,1,c,*37

Cadena GPS: $GPRMC,153638,A,4023.3272,N,00337.6837,W,0.0,259.6,230703,2.4,W,A*16

Cadena GPS: $GPRMB,A,,,,,,,,,,,,V,A*1C

Cadena GPS: $GPGGA,153638,4023.3272,N,00337.6837,W,1,12,3.5,685.7,M,52.1,M,,*59

Campos parseo :[$GPGGA, 153638, 4023.3272, N, 00337.6837, W, 1, 12, 3.5, 685.7, M, 52.1, M, , *59]
LatitudPhi: 0.7049173082189188 LongitudLambda: -0.06332162154872634
a 6378388.0 e2 0.00672267 phi 0.7049173082189188
Lambda0 -3.0
Lambda0 (radianes) -0.05235987755982988
e' 0.006768170174587595
N 6387408.990917706
T 0.7237403421584345
C 0.003926444145359284
A -0.00834917822861728
M 4472776.432062753
UTM Norte: 4471176.647686069
UTM Este : 446691.54224744346
Cadena GPS: $GPGSA,A,2,02,05,08,10,16,18,23,26,27,28,31,40,3.6,3.5,1.0*3D

Cadena GPS: $GPGSV,3,1,12,02,21,044,00,05,02,028,00,08,08,268,00,10,12,151,14*7A

Cadena GPS: $GPGSV,3,2,12,16,55,315,00,18,60,061,00,23,25,121,00,26,84,138,07*72

Cadena GPS: $GPGSV,3,3,12,27,38,278,00,28,15,186,00,31,25,192,15,40,65,090,00*7D

Cadena GPS: $GPGLL,4023.3272,N,00337.6837,W,153638,A,A*53

Cadena GPS: $GPBOD,,T,,M,,*47

Cadena GPS: $PGRME,9.4,M,22.4,M,24.3,M*22

Cadena GPS: $PGRMZ,2250,f,2*2F

Cadena GPS: $GPRTE,1,1,c,*37

Cadena GPS: $GPRMC,153640,A,4023.3266,N,00337.6844,W,0.0,259.6,230703,2.4,W,A*18

Cadena GPS: $GPRMB,A,,,,,,,,,,,,V,A*1C

Cadena GPS: $GPGGA,153640,4023.3266,N,00337.6844,W,1,12,3.5,685.7,M,52.1,M,,*57

Campos parseo :[$GPGGA, 153640, 4023.3266, N, 00337.6844, W, 1, 12, 3.5, 685.7, M, 52.1, M, , *57]
LatitudPhi: 0.7049171336859936 LongitudLambda: -0.0633218251704724
a 6378388.0 e2 0.00672267 phi 0.7049171336859936
Lambda0 -3.0
Lambda0 (radianes) -0.05235987755982988
e' 0.006768170174587595
N 6387408.987208414
T 0.7237398302757269
C 0.003926445311358251
A -0.0083493345599134
M 4472775.321609709
UTM Norte: 4471175.544700332
UTM Este : 446690.54411583155
Cadena GPS: $GPGSA,A,2,02,05,08,10,16,18,23,26,27,28,31,40,3.6,3.5,1.0*3D

Cadena GPS: $GPGSV,3,1,12,02,21,044,00,05,02,028,00,08,08,268,00,10,12,151,16*78

Cadena GPS: $GPGSV,3,2,12,16,55,315,00,18,60,061,00,23,25,121,00,26,85,138,00*74

Cadena GPS: $GPGSV,3,3,12,27,38,278,00,28,15,186,00,31,25,192,16,40,65,090,00*7E

Cadena GPS: $GPGLL,4023.3266,N,00337.6844,W,153640,A,A*5D

Cadena GPS: $GPBOD,,T,,M,,*47

Cadena GPS: $PGRME,9.4,M,22.4,M,24.3,M*22

Cadena GPS: $PGRMZ,2250,f,2*2F

Cadena GPS: $GPRTE,1,1,c,*37

Cadena GPS: $GPRMC,153642,A,4023.3259,N,00337.6851,W,0.0,259.6,230703,2.4,W,A*12

Cadena GPS: $GPRMB,A,,,,,,,,,,,,V,A*1C

Cadena GPS: $GPGGA,153642,4023.3259,N,00337.6851,W,1,12,3.5,685.7,M,52.1,M,,*5D

Campos parseo :[$GPGGA, 153642, 4023.3259, N, 00337.6851, W, 1, 12, 3.5, 685.7, M, 52.1, M, , *5D]
LatitudPhi: 0.7049169300642475 LongitudLambda: -0.06332202879221846
a 6378388.0 e2 0.00672267 phi 0.7049169300642475
Lambda0 -3.0
Lambda0 (radianes) -0.05235987755982988
e' 0.006768170174587595
N 6387408.982880907
T 0.7237392330796552
C 0.0039264466716902955
A -0.00834949109787762
M 4472774.026081162
UTM Norte: 4471174.256711444
UTM Este : 446689.5446697686
Cadena GPS: $GPGSA,A,2,02,05,08,10,16,18,23,26,27,28,31,40,3.6,3.5,1.0*3D

Cadena GPS: $GPGSV,3,1,12,02,21,044,00,05,02,028,00,08,08,268,00,10,12,151,21*7C

Cadena GPS: $GPGSV,3,2,12,16,55,315,00,18,60,061,00,23,25,121,00,26,85,138,00*74

Cadena GPS: $GPGSV,3,3,12,27,38,278,00,28,15,186,00,31,25,192,18,40,65,090,00*70

Cadena GPS: $GPGLL,4023.3259,N,00337.6851,W,153642,A,A*57

Cadena GPS: $GPBOD,,T,,M,,*47

Cadena GPS: $PGRME,9.4,M,22.4,M,24.3,M*22

Cadena GPS: $PGRMZ,2250,f,2*2F

Cadena GPS: $GPRTE,1,1,c,*37

Cadena GPS: $GPRMC,153643,V,,,,,,,,2.4,W,N*2A

Cadena GPS: $GPRMB,V,,,,,,,,,,,,V,N*04

Cadena GPS: $GPGGA,153643,,,,,0,12,,,M,,M,,*63

Campos parseo :[$GPGGA, 153643, , , , , 0, 12, , , M, , M, , *63]
LatitudPhi: 0.0 LongitudLambda: 0.0
a 6378388.0 e2 0.00672267 phi 0.0
Lambda0 -3.0
Lambda0 (radianes) -0.05235987755982988
e' 0.006768170174587595
N 6378388.0
T 0.0
C 0.006768170174587595
A 0.05235987755982988
M 0.0
UTM Norte: 0.0
UTM Este : 833991.7043777229
Cadena GPS: $GPGSA,A,1,02,05,08,10,16,18,23,26,27,28,31,40,,,*12

Cadena GPS: $GPGSV,3,1,12,02,21,044,00,05,02,028,00,08,08,268,00,10,11,151,23*7D

Cadena GPS: $GPGSV,3,2,12,16,55,315,00,18,60,061,00,23,25,121,00,26,85,138,00*74

Cadena GPS: $GPGSV,3,3,12,27,38,278,00,28,15,186,00,31,25,192,21,40,65,090,00*7A

Cadena GPS: $GPGLL,,,,,153643,V,N*62

Cadena GPS: $GPBOD,,T,,M,,*?7

Cadena GPS: $PGRME,,M,,M,,M*00

Cadena GPS: $PGRS+???1*29

Cadena GPS: $GPRTE,1,1,c,*37

Cadena GPS: $GPRMC,,V,,,,,,,,2.4,W,N*2C

Cadena GPS: $GPRMB,V,,,,,,,,,,,,V,N*04

Cadena GPS: $GPGGA,,,?	b??bbbj?,M,,*65

Cadena GPS: $GPGSA,A,1,02,05?????r?64

Cadena GPS: $GPBOD,,T,,M,,*47

Cadena GPS: $PGRME,,M,,M,,M*00

Cadena GPS: $PGRMZ,,f,1*29

Cadena GPS: $GPRTE,1,1,c,*37

Cadena GPS: $GPRMC,,V,,,,,,,,2.4,W,N*2C

Cadena GPS: $GPRMB,V,,,,,,,,,,,,V,N*04

Cadena GPS: $GPGGA,,,,,,0,12,,,M,,M,,*65

Campos parseo :[$GPGGA, , , , , , 0, 12, , , M, , M, , *65]
LatitudPhi: 0.0 LongitudLambda: 0.0
a 6378388.0 e2 0.00672267 phi 0.0
Lambda0 -3.0
Lambda0 (radianes) -0.05235987755982988
e' 0.006768170174587595
N 6378388.0
T 0.0
C 0.006768170174587595
A 0.05235987755982988
M 0.0
UTM Norte: 0.0
UTM Este : 833991.7043777229
Cadena GPS: $GPGSA,A,1,02,05,08,10,16,18,23,26,27,28,31,40,,,*12

Cadena GPS: $GPGSV,3,1,12,02,21,044,00,05,02,028,00,08,08,268,00,10,11,151,16*7B

Cadena GPS: $GPGSV,3,2,12,16,55,315,00,18,60,061,00,23,25,121,00,26,84,140,00*7A

Cadena GPS: $GPGSV,3,3,12,27,38,278,00,28,15,186,00,31,25,192,19,40,65,090,00*71

Cadena GPS: $GPGLL,,,,,,V,N*64

Cadena GPS: $GPBOD,,T,,M,,*47

Cadena GPS: $PGRME,,M,,M,,M*00

Cadena GPS: $PGRMZ,,f,1*29

Cadena GPS: $GPRTE,1,1,c,*37

Cadena GPS: ????????I??j
$GPGSA,A,1,02,05,08,10,16,18,23,26,27,28,31,40,,,*12

Cadena GPS: $GPGSV,3,1,12,02,21,044,00,05,02,028,00,08,08,268,00,10,11,151,13*7E

Cadena GPS: $GPGSV,3,2,12,16,55,315,00,18,60,061,00,23,25,121,00,26,84,140,00*7A

Cadena GPS: $GPGSV,3,3,12,27,39,279,00,28,15,186,00,31,25,192,19,40,65,090,00*71

Cadena GPS: $GPGLL,,,,,,V,N*64

Cadena GPS: $GPBOD,,T,,M,,*47

Cadena GPS: $PGRME,,M,,M,,M*00

Cadena GPS: $PGRMZ,,f,1*29

Cadena GPS: $GPRTE,1,1,c,*37

Cadena GPS: $GPRMC,,V,,,,,,,,2.4,W,N*2C

Cadena GPS: $GPRMB,V,,,,,,,,,,,,V,N*04

Cadena GPS: $GPGGA,,,,,,0,12,,,M,,M,,*65

Campos parseo :[$GPGGA, , , , , , 0, 12, , , M, , M, , *65]
LatitudPhi: 0.0 LongitudLambda: 0.0
a 6378388.0 e2 0.00672267 phi 0.0
Lambda0 -3.0
Lambda0 (radianes) -0.05235987755982988
e' 0.006768170174587595
N 6378388.0
T 0.0
C 0.006768170174587595
A 0.05235987755982988
M 0.0
UTM Norte: 0.0
UTM Este : 833991.7043777229
Cadena GPS: $GPGSA,A,1,02,05,08,10,16,18,23,26,27,28,31,40,,,*12

Cadena GPS: $GPGSV,3,1,12,02,21,044,00,05,02,028,00,08,08,268,00,10,11,151,13*7E

Cadena GPS: $GPGSV,3,2,12,16,55,315,00,18,60,061,00,23,25,121,00,26,84,140,00*7A

Cadena GPS: $GPGSV,3,3,12,27,39,279,00,28,15,186,00,31,25,192,19,40,65,090,00*71

Cadena GPS: $GPGLL,,,,,,V,N*64

Cadena GPS: $GPBOD,,T,,M,,*47

Cadena GPS: $PGRME,,M,,M,,M*00

Cadena GPS: $PGRMZ,,f,1*29

Cadena GPS: $GPRTE,1,1,c,*37

Cadena GPS: $GPRMC,,V,,,,,,,,2.4,W,N*2C

Cadena GPS: $GPRMB,V,,,,,,,,,,,,V,N*04

Cadena GPS: $GPGGA,,,,,,0,12,,,M,,M,,*65

Campos parseo :[$GPGGA, , , , , , 0, 12, , , M, , M, , *65]
LatitudPhi: 0.0 LongitudLambda: 0.0
a 6378388.0 e2 0.00672267 phi 0.0
Lambda0 -3.0
Lambda0 (radianes) -0.05235987755982988
e' 0.006768170174587595
N 6378388.0
T 0.0
C 0.006768170174587595
A 0.05235987755982988
M 0.0
UTM Norte: 0.0
UTM Este : 833991.7043777229
Cadena GPS: $GPGSA,A,1,02,05,08,10,16,18,23,26,27,28,31,40,,,*12

Cadena GPS: $GPGSV,3,1,12,02,21,044,00,05,02,028,00,08,08,268,00,10,11,151,13*7E

Cadena GPS: $GPGSV,3,2,12,16,55,315,00,18,60,061,00,23,25,121,00,26,84,140,00*7A

Cadena GPS: $GPGSV,3,3,12,27,39,279,00,28,14,185,00,31,25,192,22,40,65,090,00*7B

Cadena GPS: $GPGLL,,,,,,V,N*64

Cadena GPS: $GPBOD,,T,,M,,*47

Cadena GPS: $PGRME,,M,,M,,M*00

Cadena GPS: $PGRMZ,,f,1*29

Cadena GPS: $GPRTE,1,1,c,*37

Cadena GPS: $GPRMC,,V,,,,,,,,2.4,W,N*2C

Cadena GPS: $GPRMB,V,,,,,,,,,,,,V,N*04

Cadena GPS: $GPGGA,,,,,,0,12,,,M,,M,,*65

Campos parseo :[$GPGGA, , , , , , 0, 12, , , M, , M, , *65]
LatitudPhi: 0.0 LongitudLambda: 0.0
a 6378388.0 e2 0.00672267 phi 0.0
Lambda0 -3.0
Lambda0 (radianes) -0.05235987755982988
e' 0.006768170174587595
N 6378388.0
T 0.0
C 0.006768170174587595
A 0.05235987755982988
M 0.0
UTM Norte: 0.0
UTM Este : 833991.7043777229
Cadena GPS: $GPGSA,A,1,02,05,08,10,16,18,23,26,27,28,31,40,,,*12

Cadena GPS: $GPGSV,3,1,12,02,21,044,00,05,02,028,00,08,08,268,00,10,11,151,13*7E

Cadena GPS: $GPGSV,3,2,12,16,55,315,00,18,60,061,00,23,25,121,00,26,84,140,00*7A

Cadena GPS: $GPGSV,3,3,12,27,39,279,00,28,14,185,00,31,25,192,22,40,65,090,00*7B

Cadena GPS: $GPGLL,,,,,,V,N*64

Cadena GPS: $GPBOD,,T,,M,,*47

Cadena GPS: $PGRME,,M,,M,,M*00

Cadena GPS: $PGRMZ,,f,1*29

Cadena GPS: $GPRTE,1,1,c,*37

Cadena GPS: $GPRMC,,V,,,,,,,,2.4,W,N*2C

Cadena GPS: $GPRMB,V,,,,,,,,,,,,V,N*04

Cadena GPS: $GPGGA,,,,,,0,12,,,M,,M,,*65

Campos parseo :[$GPGGA, , , , , , 0, 12, , , M, , M, , *65]
LatitudPhi: 0.0 LongitudLambda: 0.0
a 6378388.0 e2 0.00672267 phi 0.0
Lambda0 -3.0
Lambda0 (radianes) -0.05235987755982988
e' 0.006768170174587595
N 6378388.0
T 0.0
C 0.006768170174587595
A 0.05235987755982988
M 0.0
UTM Norte: 0.0
UTM Este : 833991.7043777229
Cadena GPS: $GPGSA,A,1,02,05,08,10,16,18,23,26,27,28,31,40,,,*12

Cadena GPS: $GPGSV,3,1,12,02,21,044,00,05,02,028,00,08,08,268,00,10,11,151,12*7F

Cadena GPS: $GPGSV,3,2,12,16,55,315,00,18,60,061,00,23,25,121,00,26,84,140,00*7A

Cadena GPS: $GPGSV,3,3,12,27,39,279,00,28,14,185,00,31,25,192,22,40,65,090,00*7B

Cadena GPS: $GPGLL,,,,,,V,N*64

Cadena GPS: $GPBOD,,T,,M,,*47

Cadena GPS: $PGRME,,M,,M,,M*00

Cadena GPS: $PGRMZ,,f,1*29

Cadena GPS: $GPRTE,1,1,c,*37

Cadena GPS: $GPRMC,,V,,,,,,,,2.4,W,N*2C

Cadena GPS: $GPRMB,V,,,,,,,,,,,,V,N*04

Cadena GPS: $GPGGA,,,,,,0,12,,,M,,M,,*65

Campos parseo :[$GPGGA, , , , , , 0, 12, , , M, , M, , *65]
LatitudPhi: 0.0 LongitudLambda: 0.0
a 6378388.0 e2 0.00672267 phi 0.0
Lambda0 -3.0
Lambda0 (radianes) -0.05235987755982988
e' 0.006768170174587595
N 6378388.0
T 0.0
C 0.006768170174587595
A 0.05235987755982988
M 0.0
UTM Norte: 0.0
UTM Este : 833991.7043777229
Cadena GPS: $GPGSA,A,1,02,05,08,10,16,18,23,26,27,28,31,40,,,*12

Cadena GPS: $GPGSV,3,1,12,02,21,044,00,05,02,028,00,08,08,268,00,10,11,151,00*7C

Cadena GPS: $GPGSV,3,2,12,16,55,315,00,18,60,061,00,23,25,121,00,26,84,140,00*7A

Cadena GPS: $GPGSV,3,3,12,27,39,279,00,28,14,185,00,31,25,192,22,40,65,090,00*7B

Cadena GPS: $GPGLL,,,,,,V,N*64

Cadena GPS: $GPBOD,,T,,M,,*47

Cadena GPS: $PGRME,,M,,M,,M*00

Cadena GPS: $PGRMZ,,f,1*29

Cadena GPS: $GPRTE,1,1,c,*37

Cadena GPS: $GPRMC,,V,,,,,,,,2.4,W,N*2C

Cadena GPS: $GPRMB,V,,,,,,,,,,,,V,N*04

Cadena GPS: $GPGGA,,,,,,0,12,,,M,,M,,*65

Campos parseo :[$GPGGA, , , , , , 0, 12, , , M, , M, , *65]
LatitudPhi: 0.0 LongitudLambda: 0.0
a 6378388.0 e2 0.00672267 phi 0.0
Lambda0 -3.0
Lambda0 (radianes) -0.05235987755982988
e' 0.006768170174587595
N 6378388.0
T 0.0
C 0.006768170174587595
A 0.05235987755982988
M 0.0
UTM Norte: 0.0
UTM Este : 833991.7043777229
Cadena GPS: $GPGSA,A,1,02,05,08,10,16,18,23,26,27,28,31,40,,,*12

Cadena GPS: $GPGSV,3,1,12,02,21,044,00,05,02,028,00,08,08,268,00,10,11,151,07*7B

Cadena GPS: $GPGSV,3,2,12,16,55,315,00,18,60,061,00,23,25,121,00,26,84,140,00*7A

Cadena GPS: $GPGSV,3,3,12,27,39,279,00,28,14,185,00,31,25,192,21,40,65,090,00*78

Cadena GPS: $GPGLL,,,,,,V,N*64

Cadena GPS: $GPBOD,,T,,M,,*47

Cadena GPS: $PGRME,,M,,M,,M*00

Cadena GPS: $PGRMZ,,f,1*29

Cadena GPS: $GPRTE,1,1,c,*37

Cadena GPS: $GPRMC,,V,,,,,,,,2.4,W,N*2C

Cadena GPS: $GPRMB,V,,,,,,,,,,,,V,N*04

Cadena GPS: $GPGGA,,,,,,0,12,,,M,,M,,*65

Campos parseo :[$GPGGA, , , , , , 0, 12, , , M, , M, , *65]
LatitudPhi: 0.0 LongitudLambda: 0.0
a 6378388.0 e2 0.00672267 phi 0.0
Lambda0 -3.0
Lambda0 (radianes) -0.05235987755982988
e' 0.006768170174587595
N 6378388.0
T 0.0
C 0.006768170174587595
A 0.05235987755982988
M 0.0
UTM Norte: 0.0
UTM Este : 833991.7043777229
Cadena GPS: $GPGSA,A,1,02,05,08,10,16,18,23,26,27,28,31,40,,,*12

Cadena GPS: $GPGSV,3,1,12,02,21,044,00,05,02,028,00,08,08,268,00,10,11,151,13*7E

Cadena GPS: $GPGSV,3,2,12,16,55,315,00,18,60,061,00,23,25,121,00,26,84,140,00*7A

Cadena GPS: $GPGSV,3,3,12,27,39,279,00,28,14,185,00,31,25,192,24,40,65,090,00*7D

Cadena GPS: $GPGLL,,,,,,V,N*64

Cadena GPS: $GPBOD,,T,,M,,*47

Cadena GPS: $PGRME,,M,,M,,M*00

Cadena GPS: $PGRMZ,,f,1*29

Cadena GPS: $GPRTE,1,1,c,*37

Cadena GPS: $GPRMC,,V,,,,,,,,2.4,W,N*2C

Cadena GPS: $GPRMB,V,,,,,,,,,,,,V,N*04

Cadena GPS: $GPGGA,,,,,,0,12,,,M,,M,,*65

Campos parseo :[$GPGGA, , , , , , 0, 12, , , M, , M, , *65]
LatitudPhi: 0.0 LongitudLambda: 0.0
a 6378388.0 e2 0.00672267 phi 0.0
Lambda0 -3.0
Lambda0 (radianes) -0.05235987755982988
e' 0.006768170174587595
N 6378388.0
T 0.0
C 0.006768170174587595
A 0.05235987755982988
M 0.0
UTM Norte: 0.0
UTM Este : 833991.7043777229
Cadena GPS: $GPGSA,A,1,02,05,08,10,16,18,23,26,27,28,31,40,,,*12

Cadena GPS: $GPGSV,3,1,12,02,21,044,00,05,02,028,00,08,08,268,00,10,11,151,00*7C

Cadena GPS: $GPGSV,3,2,12,16,55,315,00,18,60,061,00,23,25,121,00,26,84,140,00*7A

Cadena GPS: $GPGSV,3,3,12,27,39,279,00,28,14,185,00,31,24,192,29,40,65,090,00*71

Cadena GPS: $GPGLL,,,,,,V,N*64

Cadena GPS: $GPBOD,,T,,M,,*47

Cadena GPS: $PGRME,,M,,M,,M*00

Cadena GPS: $PGRMZ,,f,1*29

Cadena GPS: $GPRTE,1,1,c,*37

Cadena GPS: $GPRMC,,V,,,,,,,,2.4,W,N*2C

Cadena GPS: $GPRMB,V,,,,,,,,,,,,V,N*04

Cadena GPS: $GPGGA,,,,,,0,12,,,M,,M,,*65

Campos parseo :[$GPGGA, , , , , , 0, 12, , , M, , M, , *65]
LatitudPhi: 0.0 LongitudLambda: 0.0
a 6378388.0 e2 0.00672267 phi 0.0
Lambda0 -3.0
Lambda0 (radianes) -0.05235987755982988
e' 0.006768170174587595
N 6378388.0
T 0.0
C 0.006768170174587595
A 0.05235987755982988
M 0.0
UTM Norte: 0.0
UTM Este : 833991.7043777229
Cadena GPS: $GPGSA,A,1,02,05,08,10,16,18,23,26,27,28,31,40,,,*12

Cadena GPS: $GPGSV,3,1,12,02,21,044,00,05,02,028,00,08,08,268,00,10,11,151,00*7C

Cadena GPS: $GPGSV,3,2,12,16,55,315,00,18,60,061,00,23,25,121,00,26,84,140,00*7A

Cadena GPS: $GPGSV,3,3,12,27,39,279,00,28,14,185,00,31,24,192,21,40,65,090,00*79

Cadena GPS: $GPGLL,,,,,,V,N*64

Cadena GPS: $GPBOD,,T,,M,,*47

Cadena GPS: $PGRME,,M,,M,,M*00

Cadena GPS: $PGRMZ,,f,1*29

Cadena GPS: $GPRTE,1,1,c,*37

Cadena GPS: $GPRMC,,V,,,,,,,,2.4,W,N*2C

Cadena GPS: $GPRMB,V,,,,,,,,,,,,V,N*04

Cadena GPS: $GPGGA,,,,,,0,12,,,M,,M,,*65

Campos parseo :[$GPGGA, , , , , , 0, 12, , , M, , M, , *65]
LatitudPhi: 0.0 LongitudLambda: 0.0
a 6378388.0 e2 0.00672267 phi 0.0
Lambda0 -3.0
Lambda0 (radianes) -0.05235987755982988
e' 0.006768170174587595
N 6378388.0
T 0.0
C 0.006768170174587595
A 0.05235987755982988
M 0.0
UTM Norte: 0.0
UTM Este : 833991.7043777229
Cadena GPS: $GPGSA,A,1,02,05,08,10,16,18,23,2?28,????1B

Cadena GPS: $GPGSV,3,1,12,02,21,044,00,05,02,028,00,08,08,268,00,10,11,151,00*7C

Cadena GPS: $GPGSV,3,2,12,16,55,315,00,18,60,061,00,23,25,121,00,26,84,140,00*7A

Cadena GPS: $GPGSV,3,3,12,27,39,279,00,28,14,185,00,29,10,070,00,40,65,090,00*79

Cadena GPS: $GPGLL,,,,,,V,N*64

Cadena GPS: $GPBOD,,T,,M,,*47

Cadena GPS: $PGRME,,M,,M,,M*00

Cadena GPS: $PGRMZ,,f,1*29

Cadena GPS: $GPRTE,1,1,c,*37

Cadena GPS: $GPRMC,,V,,,,,,,,2.4,W,N*2C

Cadena GPS: $GPRMB,V,,,,,,,,,,,,V,N*04

Cadena GPS: $GPGGA,,,,,,0,12,,,M,,M,,*65

Campos parseo :[$GPGGA, , , , , , 0, 12, , , M, , M, , *65]
LatitudPhi: 0.0 LongitudLambda: 0.0
a 6378388.0 e2 0.00672267 phi 0.0
Lambda0 -3.0
Lambda0 (radianes) -0.05235987755982988
e' 0.006768170174587595
N 6378388.0
T 0.0
C 0.006768170174587595
A 0.05235987755982988
M 0.0
UTM Norte: 0.0
UTM Este : 833991.7043777229
Cadena GPS: $GPGSA,A,1,02,05,08,10,16,18,23,26,27,28,31,40,,,*12

Cadena GPS: $GPGSV,3,1,12,02,21,044,00,05,02,028,00,08,08,268,00,10,11,151,27*79

Cadena GPS: $GPGSV,3,2,12,16,55,315,00,18,60,061,00,23,25,121,00,26,84,140,00*7A

Cadena GPS: $GPGSV,3,3,12,27,39,279,00,28,14,185,22,31,24,192,22,40,65,090,00*7A

Cadena GPS: $GPGLL,,,,,,V,N*64

Cadena GPS: $GPBOD,,T,,M,,*47

Cadena GPS: $PGRME,,M,,M,,M*00

Cadena GPS: $PGRMZ,,f,1*29

Cadena GPS: $GPRTE,1,1,c,*37

Cadena GPS: $GPRMC,,V,,,,,,,,2.4,W,N*2C

Cadena GPS: $GPRMB,V,,,,,,,,,,,,V,N*04

Cadena GPS: $GPGGA,,,,,,0,12,,,M,,M,,*65

Campos parseo :[$GPGGA, , , , , , 0, 12, , , M, , M, , *65]
LatitudPhi: 0.0 LongitudLambda: 0.0
a 6378388.0 e2 0.00672267 phi 0.0
Lambda0 -3.0
Lambda0 (radianes) -0.05235987755982988
e' 0.006768170174587595
N 6378388.0
T 0.0
C 0.006768170174587595
A 0.05235987755982988
M 0.0
UTM Norte: 0.0
UTM Este : 833991.7043777229
Cadena GPS: $GPGSA,A,1,02,05,08,10,16,18,23,26,27,28,31,40,,,*12

Cadena GPS: $GPGSV,3,1,12,02,21,044,00,05,02,028,00,08,08,268,00,10,11,151,26*78

Cadena GPS: $GPGSV,3,2,12,16,55,315,00,18,60,061,00,23,25,121,00,26,84,140,00*7A

Cadena GPS: $GPGSV,3,3,12,27,39,279,00,28,14,185,22,31,24,192,21,40,65,090,00*79

Cadena GPS: $GPGLL,,,,,,V,N*64

Cadena GPS: $GPBOD,,T,,M,,*47

Cadena GPS: $PGRME,,M,,M,,M*00

Cadena GPS: $PGRMZ,,f,1*29

Cadena GPS: $GPRTE,1,1,c,*37

Cadena GPS: $GPRMC,,V,,,,,,,,2.4,W,N*2C

Cadena GPS: $GPRMB,V,,,,,,,,,,,,V,N*04

Cadena GPS: $GPGGA,,,,,,0,12,,,M,,M,,*65

Campos parseo :[$GPGGA, , , , , , 0, 12, , , M, , M, , *65]
LatitudPhi: 0.0 LongitudLambda: 0.0
a 6378388.0 e2 0.00672267 phi 0.0
Lambda0 -3.0
Lambda0 (radianes) -0.05235987755982988
e' 0.006768170174587595
N 6378388.0
T 0.0
C 0.006768170174587595
A 0.05235987755982988
M 0.0
UTM Norte: 0.0
UTM Este : 833991.7043777229
Cadena GPS: $GPGSA,A,1,02,05,08,10,16,18,23,26,27,28,31,40,,,*12

Cadena GPS: $GPGSV,3,1,12,02,21,044,00,05,02,028,00,08,08,268,00,10,11,151,24*7A

Cadena GPS: $GPGSV,3,2,12,16,55,315,00,18,60,061,00,23,25,121,00,26,84,140,00*7A

Cadena GPS: $GPGSV,3,3,12,27,39,279,00,28,14,185,23,31,24,192,20,40,65,090,00*79

Cadena GPS: $GPGLL,,,,,,V,N*64

Cadena GPS: $GPBOD,,T,,M,,*47

Cadena GPS: $PGRME,,M,,M,,M*00

Cadena GPS: $PGRMZ,,f,1*29

Cadena GPS: $GPRTE,1,1,c,*37

Cadena GPS: $GPRMC,,V,,,,,,,,2.4,W,N*2C

Cadena GPS: $GPRMB,V,,,,,,,,,,,,V,N*04

Cadena GPS: $GPGGA,,,,,,0,12,,,M,,M,,*65

Campos parseo :[$GPGGA, , , , , , 0, 12, , , M, , M, , *65]
LatitudPhi: 0.0 LongitudLambda: 0.0
a 6378388.0 e2 0.00672267 phi 0.0
Lambda0 -3.0
Lambda0 (radianes) -0.05235987755982988
e' 0.006768170174587595
N 6378388.0
T 0.0
C 0.006768170174587595
A 0.05235987755982988
M 0.0
UTM Norte: 0.0
UTM Este : 833991.7043777229
Cadena GPS: $GPGSA,A,1,02,05,08,10,16,18,23,26,27,28,31,40,,,*12

Cadena GPS: $GPGSV,3,1,12,02,20,044,00,05,02,028,00,08,08,268,00,10,11,151,27*78

Cadena GPS: $GPGSV,3,2,12,16,55,315,00,18,60,061,00,23,25,121,00,26,84,140,00*7A

Cadena GPS: $GPGSV,3,3,12,27,39,279,00,28,14,185,22,31,24,192,21,40,65,090,00*79

Cadena GPS: $GPGLL,,,,,,V,N*64

Cadena GPS: $GPBOD,,T,,M,,*47

Cadena GPS: $PGRME,,M,,M,,M*00

Cadena GPS: $PGRMZ,,f,1*29

Cadena GPS: $GPRTE,1,1,c,*37

Cadena GPS: $GPRMC,,V,,,,,,,,2.4,W,N*2C

Cadena GPS: $GPRMB,V,,,,,,,,,,,,V,N*04

Cadena GPS: $GPGGA,,,,,,0,12,,,M,,M,,*65

Campos parseo :[$GPGGA, , , , , , 0, 12, , , M, , M, , *65]
LatitudPhi: 0.0 LongitudLambda: 0.0
a 6378388.0 e2 0.00672267 phi 0.0
Lambda0 -3.0
Lambda0 (radianes) -0.05235987755982988
e' 0.006768170174587595
N 6378388.0
T 0.0
C 0.006768170174587595
A 0.05235987755982988
M 0.0
UTM Norte: 0.0
UTM Este : 833991.7043777229
Cadena GPS: $GPGSA,A,1,02,05,08,10,16,18,23,26,27,28,31,40,,,*12

Cadena GPS: $GPGSV,3,1,12,02,20,044,00,05,02,028,00,08,08,268,00,10,11,151,26*79

Cadena GPS: $GPGSV,3,2,12,16,55,315,00,18,60,061,00,23,25,121,00,26,84,140,00*7A

Cadena GPS: $GPGSV,3,3,12,27,39,279,00,28,14,185,22,31,24,192,20,40,65,090,00*78

Cadena GPS: $GPGLL,,,,,,V,N*64

Cadena GPS: $GPBOD,,T,,M,,*47

Cadena GPS: $PGRME,,M,,M,,M*00

Cadena GPS: $PGRMZ,,f,1*29

Cadena GPS: $GPRTE,1,1,c,*37

Cadena GPS: NI??b??b??b??b???b??R?"5
$GPGSV,3,2,12,16,55,315,00,18,60,061,00,23,25,121,00,26,84,140,00*7A

Cadena GPS: $GPGSV,3,3,12,27,39,279,00,28,14,185,19,31,24,192,19,33,65,090,00*7E

Cadena GPS: $GPGLL,,,,,,V,N*64

Cadena GPS: $GPBOD,,T,,M,,*47

Cadena GPS: $PGRME,,M,,M,,M*00

Cadena GPS: $PGRMZ,,f,1*29

Cadena GPS: $GPRTE,1,1,c,*37

Cadena GPS: $GPRMC,,V,,,,,,,,2.4,W,N*2C

Cadena GPS: $GPRMB,V,,,,,,,,,,,,V,N*04

Cadena GPS: $GPGGA,,,,,,0,12,,,M,,M,,*65

Campos parseo :[$GPGGA, , , , , , 0, 12, , , M, , M, , *65]
LatitudPhi: 0.0 LongitudLambda: 0.0
a 6378388.0 e2 0.00672267 phi 0.0
Lambda0 -3.0
Lambda0 (radianes) -0.05235987755982988
e' 0.006768170174587595
N 6378388.0
T 0.0
C 0.006768170174587595
A 0.05235987755982988
M 0.0
UTM Norte: 0.0
UTM Este : 833991.7043777229
Cadena GPS: $GPGSA,A,1,02,05,08,10,16,18,23,26,27,28,31,33,,,*16

Cadena GPS: $GPGSV,3,1,12,02,20,044,00,05,02,028,00,08,09,269,00,10,12,151,21*7D

Cadena GPS: $GPGSV,3,2,12,16,56,315,00,18,60,061,00,23,25,121,00,26,84,140,00*79

Cadena GPS: $GPGSV,3,3,12,27,39,279,00,28,14,185,20,31,24,192,19,33,65,090,00*74

Cadena GPS: $GPGLL,,,,,,V,N*64

Cadena GPS: $GPBOD,,T,,M,,*47

Cadena GPS: $PGRME,,M,,M,,M*00

Cadena GPS: $PGRMZ,,f,1*29

Cadena GPS: $GPRTE,1,1,c,*37

Cadena GPS: $GPRMC,,V,,,,,,,,2.4,W,N*2C

Cadena GPS: $GPRMB,V,,,,,,,,,,,,V,N*04

Cadena GPS: $GPGGA,,,,,,0,12,,,M,,M,,*65

Campos parseo :[$GPGGA, , , , , , 0, 12, , , M, , M, , *65]
LatitudPhi: 0.0 LongitudLambda: 0.0
a 6378388.0 e2 0.00672267 phi 0.0
Lambda0 -3.0
Lambda0 (radianes) -0.05235987755982988
e' 0.006768170174587595
N 6378388.0
T 0.0
C 0.006768170174587595
A 0.05235987755982988
M 0.0
UTM Norte: 0.0
UTM Este : 833991.7043777229
Cadena GPS: $GPGSA,A,1,02,05,08,10,16,18,23,26,27,28,31,33,,,*16

Cadena GPS: $GPGSV,3,1,12,02,20,044,00,05,02,028,00,08,09,269,00,10,12,151,20*7C

Cadena GPS: $GPGSV,3,2,12,16,56,315,00,18,60,061,00,23,25,121,00,26,84,140,00*79

Cadena GPS: $GPGSV,3,3,12,27,39,279,00,28,14,185,21,31,24,192,19,33,65,090,00*75

Cadena GPS: $GPGLL,,,,,,V,N*64

Cadena GPS: $GPBOD,,T,,M,,*47

Cadena GPS: $PGRME,,M,,M,,M*00

Cadena GPS: $PGRMZ,,f,1*29

Cadena GPS: $GPRTE,1,1,c,*37

Cadena GPS: $GPRMC,,V,,,,,,,,2.4,W,N*2C

Cadena GPS: $GPRMB,V,,,,,,,,,,,,V,N*04

Cadena GPS: $GPGGA,,,,,,0,12,,,M,,M,,*65

Campos parseo :[$GPGGA, , , , , , 0, 12, , , M, , M, , *65]
LatitudPhi: 0.0 LongitudLambda: 0.0
a 6378388.0 e2 0.00672267 phi 0.0
Lambda0 -3.0
Lambda0 (radianes) -0.05235987755982988
e' 0.006768170174587595
N 6378388.0
T 0.0
C 0.006768170174587595
A 0.05235987755982988
M 0.0
UTM Norte: 0.0
UTM Este : 833991.7043777229
Cadena GPS: $GPGSA,A,1,02,05,08,10,16,18,23,26,27,28,31,33,,,*16

Cadena GPS: $GPGSV,3,1,12,02,20,044,00,05,02,028,00,08,09,269,00,10,12,151,20*7C

Cadena GPS: $GPGSV,3,2,12,16,56,315,00,18,60,061,00,23,25,121,00,26,84,140,00*79

Cadena GPS: $GPGSV,3,3,12,27,39,279,00,28,14,185,22,31,24,192,20,33,65,090,00*7C

Cadena GPS: $GPGLL,,,,,,V,N*64

Cadena GPS: $GPBOD,,T,,M,,*47

Cadena GPS: $PGRME,,M,,M,,M*00

Cadena GPS: $PGRMZ,,f,1*29

Cadena GPS: $GPRTE,1,1,c,*37

Cadena GPS: $GPRMC,,V,,,,,,,,2.4,W,N*2C

Cadena GPS: $GPRMB,V,,,,,,,,,,,,V,N*04

Cadena GPS: $GPGGA,,,,,,0,12,,,M,,M,,*65

Campos parseo :[$GPGGA, , , , , , 0, 12, , , M, , M, , *65]
LatitudPhi: 0.0 LongitudLambda: 0.0
a 6378388.0 e2 0.00672267 phi 0.0
Lambda0 -3.0
Lambda0 (radianes) -0.05235987755982988
e' 0.006768170174587595
N 6378388.0
T 0.0
C 0.006768170174587595
A 0.05235987755982988
M 0.0
UTM Norte: 0.0
UTM Este : 833991.7043777229
Cadena GPS: $GPGSA,A,1,02,05,08,10,16,18,23,26,27,28,31,33,,,*16

Cadena GPS: $GPGSV,3,1,12,02,20,044,00,05,02,028,00,08,09,269,00,10,12,151,20*7C

Cadena GPS: $GPGSV,3,2,12,16,56,315,00,18,60,061,00,23,25,121,00,26,84,140,00*79

Cadena GPS: $GPGSV,3,3,12,27,39,279,00,28,14,185,23,31,24,192,19,33,65,090,00*77

Cadena GPS: $GPGLL,,,,,,V,N*64

Cadena GPS: $GPBOD,,T,,M,,*47

Cadena GPS: $PGRME,,M,,M,,M*00

Cadena GPS: $PGRMZ,,f,1*29

Cadena GPS: $GPRTE,1,1,c,*37

Cadena GPS: $GPRMC,,V,,,,,,,,2.4,W,N*2C

Cadena GPS: $GPRMB,V,,,,,,,,,,,,V,N*04

Cadena GPS: $GPGGA,,,,,,0,12,,,M,,M,,*65

Campos parseo :[$GPGGA, , , , , , 0, 12, , , M, , M, , *65]
LatitudPhi: 0.0 LongitudLambda: 0.0
a 6378388.0 e2 0.00672267 phi 0.0
Lambda0 -3.0
Lambda0 (radianes) -0.05235987755982988
e' 0.006768170174587595
N 6378388.0
T 0.0
C 0.006768170174587595
A 0.05235987755982988
M 0.0
UTM Norte: 0.0
UTM Este : 833991.7043777229
Cadena GPS: $GPGSA,A,1,02,05,08,10,16,18,23,26,27,28,31,33,,,*16

Cadena GPS: $GPGSV,3,1,12,02,20,044,00,05,02,028,00,08,09,269,00,10,12,151,19*76

Cadena GPS: $GPGSV,3,2,12,16,56,315,00,18,60,059,00,23,25,121,00,26,84,140,00*72

Cadena GPS: $GPGSV,3,3,12,27,39,279,00,28,14,185,24,31,24,192,19,33,65,090,00*70

Cadena GPS: $GPGLL,,,,,,V,N*64

Cadena GPS: $GPBOD,,T,,M,,*47

Cadena GPS: $PGRME,,M,,M,,M*00

Cadena GPS: $PGRMZ,,f,1*29

Cadena GPS: $GPRTE,1,1,c,*37

Cadena GPS: $GPRMC,,V,,,,,,,,2.4,W,N*2C

Cadena GPS: $GPRMB,V,,,,,,,,,,,,V,N*04

Cadena GPS: $GPGGA,,,,,,0,12,,,M,,M,,*65

Campos parseo :[$GPGGA, , , , , , 0, 12, , , M, , M, , *65]
LatitudPhi: 0.0 LongitudLambda: 0.0
a 6378388.0 e2 0.00672267 phi 0.0
Lambda0 -3.0
Lambda0 (radianes) -0.05235987755982988
e' 0.006768170174587595
N 6378388.0
T 0.0
C 0.006768170174587595
A 0.05235987755982988
M 0.0
UTM Norte: 0.0
UTM Este : 833991.7043777229
Cadena GPS: $GPGSA,A,1,02,05,08,10,16,18,23,26,27,28,31,33,,,*16

Cadena GPS: $GPGSV,3,1,12,02,20,044,00,05,02,028,00,08,09,269,00,10,12,151,18*77

Cadena GPS: $GPGSV,3,2,12,16,56,315,00,18,60,059,00,23,25,121,00,26,84,140,00*72

Cadena GPS: $GPGSV,3,3,12,27,39,279,00,28,14,185,24,31,24,192,18,33,65,090,00*71

Cadena GPS: $GPGLL,,,,,,V,N*64

Cadena GPS: $GPBOD,,T,,M,,*47

Cadena GPS: $PGRME,,M,,M,,M*00

Cadena GPS: $PGRMZ,,f,1*29

Cadena GPS: $GPRTE,1,1,c,*37

Cadena GPS: $GPRMC,,V,,,,,,,,2.4,W,N*2C

Cadena GPS: $GPRMB,V,,,,,,,,,,,,V,N*04

Cadena GPS: $GPGGA,,,,,,0,12,,,M,,M,,*65

Campos parseo :[$GPGGA, , , , , , 0, 12, , , M, , M, , *65]
LatitudPhi: 0.0 LongitudLambda: 0.0
a 6378388.0 e2 0.00672267 phi 0.0
Lambda0 -3.0
Lambda0 (radianes) -0.05235987755982988
e' 0.006768170174587595
N 6378388.0
T 0.0
C 0.006768170174587595
A 0.05235987755982988
M 0.0
UTM Norte: 0.0
UTM Este : 833991.7043777229
Cadena GPS: $GPGSA,A,1,02,05,08,10,16,18,23,26,27,28,31,33,,,*16

Cadena GPS: $GPGSV,3,1,12,02,20,044,00,05,02,028,00,08,09,269,00,10,12,151,18*77

Cadena GPS: $GPGSV,3,2,12,16,56,315,00,18,60,059,00,23,25,121,00,26,84,140,00*72

Cadena GPS: $GPGSV,3,3,12,27,39,279,00,28,14,185,24,31,24,192,17,33,65,090,00*7E

Cadena GPS: $GPGLL,,,,,,V,N*64

Cadena GPS: $GPBOD,,T,,M,,*47

Cadena GPS: $PGRME,,M,,M,,M*00

Cadena GPS: $PGRMZ,,f,1*29

Cadena GPS: $GPRTE,1,1,c,*37

Cadena GPS: $GPRMC,,V,,,,,,,,2.4,W,N*2C

Cadena GPS: $GPRMB,V,,,,,,,,,,,,V,N*04

Cadena GPS: $GPGGA,,,,,,0,12,,,M,,M,,*65

Campos parseo :[$GPGGA, , , , , , 0, 12, , , M, , M, , *65]
LatitudPhi: 0.0 LongitudLambda: 0.0
a 6378388.0 e2 0.00672267 phi 0.0
Lambda0 -3.0
Lambda0 (radianes) -0.05235987755982988
e' 0.006768170174587595
N 6378388.0
T 0.0
C 0.006768170174587595
A 0.05235987755982988
M 0.0
UTM Norte: 0.0
UTM Este : 833991.7043777229
Cadena GPS: $GPGSA,A,1,02,05,08,10,16,18,23,26,27,28,31,33,,,*16

Cadena GPS: $GPGSV,3,1,12,02,20,044,00,05,02,028,00,08,09,269,00,10,12,151,18*77

Cadena GPS: $GPGSV,3,2,12,16,56,315,00,18,60,059,00,23,25,121,00,26,84,140,00*72

Cadena GPS: $GPGSV,3,3,12,27,39,279,00,28,14,185,23,31,24,192,17,33,65,090,00*79

Cadena GPS: $GPGLL,,,,,,V,N*64

Cadena GPS: $GPBOD,,T,,M,,*47

Cadena GPS: $PGRME,,M,,M,,M*00

Cadena GPS: $PGRMZ,,f,1*29

Cadena GPS: $GPRTE,1,1,c,*37

Cadena GPS: $GPRMC,,V,,,,,,,,2.4,W,N*2C

Cadena GPS: $GPRMB,V,,,,,,,,,,,,V,N*04

Cadena GPS: $GPGGA,,,,,,0,12,,,M,,M,,*65

Campos parseo :[$GPGGA, , , , , , 0, 12, , , M, , M, , *65]
LatitudPhi: 0.0 LongitudLambda: 0.0
a 6378388.0 e2 0.00672267 phi 0.0
Lambda0 -3.0
Lambda0 (radianes) -0.05235987755982988
e' 0.006768170174587595
N 6378388.0
T 0.0
C 0.006768170174587595
A 0.05235987755982988
M 0.0
UTM Norte: 0.0
UTM Este : 833991.7043777229
Cadena GPS: $GPGSA,A,1,02,05,08,10,16,18,23,26,27,28,31,33,,,*16

Cadena GPS: $GPGSV,3,1,12,02,20,044,00,05,02,028,00,08,09,269,00,10,12,151,19*76

Cadena GPS: $GPGSV,3,2,12,16,56,315,00,18,60,059,00,23,25,121,00,26,84,140,00*72

Cadena GPS: $GPGSV,3,3,12,27,39,279,00,28,14,185,22,31,24,192,16,33,65,090,00*79

Cadena GPS: $GPGLL,,,,,,V,N*64

Cadena GPS: $GPBOD,,T,,M,,*47

Cadena GPS: $PGRME,,M,,M,,M*00

Cadena GPS: $PGRMZ,,f,1*29

Cadena GPS: $GPRTE,1,1,c,*37

Cadena GPS: $GPRMC,,V,,,,,,,,2.4,W,N*2C

Cadena GPS: $GPRMB,V,,,,,,,,,,,,V,N*04

Cadena GPS: $GPGGA,,,,,,0,12,,,M,,M,,*65

Campos parseo :[$GPGGA, , , , , , 0, 12, , , M, , M, , *65]
LatitudPhi: 0.0 LongitudLambda: 0.0
a 6378388.0 e2 0.00672267 phi 0.0
Lambda0 -3.0
Lambda0 (radianes) -0.05235987755982988
e' 0.006768170174587595
N 6378388.0
T 0.0
C 0.006768170174587595
A 0.05235987755982988
M 0.0
UTM Norte: 0.0
UTM Este : 833991.7043777229
Cadena GPS: $GPGSA,A,1,02,05,08,10,16,18,23,26,27,28,31,33,,,*16

Cadena GPS: $GPGSV,3,1,12,02,20,044,00,05,02,028,00,08,09,269,00,10,12,151,19*76

Cadena GPS: $GPGSV,3,2,12,16,56,315,00,18,60,059,00,23,25,121,00,26,84,140,00*72

Cadena GPS: $GPGSV,3,3,12,27,39,279,00,28,14,185,21,31,24,192,16,33,65,090,00*7A

Cadena GPS: $GPGLL,,,,,,V,N*64

Cadena GPS: $GPBOD,,T,,M,,*47

Cadena GPS: $PGRME,,M,,M,,M*00

Cadena GPS: $PGRMZ,,f,1*29

Cadena GPS: $GPRTE,1,1,c,*37

Cadena GPS: $GPRMC,,V,,,,,,,,2.4,W,N*2C

Cadena GPS: $GPRMB,V,,,,,,,,,,,,V,N*04

Cadena GPS: $GPGGA,,,,,,0,12,,,M,,M,,*65

Campos parseo :[$GPGGA, , , , , , 0, 12, , , M, , M, , *65]
LatitudPhi: 0.0 LongitudLambda: 0.0
a 6378388.0 e2 0.00672267 phi 0.0
Lambda0 -3.0
Lambda0 (radianes) -0.05235987755982988
e' 0.006768170174587595
N 6378388.0
T 0.0
C 0.006768170174587595
A 0.05235987755982988
M 0.0
UTM Norte: 0.0
UTM Este : 833991.7043777229
Cadena GPS: $GPGSA,A,1,02,05,08,10,16,18,23,26,27,28,31,33,,,*16

Cadena GPS: $GPGSV,3,1,12,02,20,044,00,05,02,028,00,08,09,269,00,10,12,151,19*76

Cadena GPS: $GPGSV,3,2,12,16,56,315,00,18,60,059,00,23,25,121,00,26,84,140,00*72

Cadena GPS: $GPGSV,3,3,12,27,39,279,00,28,14,185,22,31,24,192,16,33,65,090,00*79

Cadena GPS: $GPGLL,,,,,,V,N*64

Cadena GPS: $GPBOD,,T,,M,,*47

Cadena GPS: $PGRME,,M,,M,,M*00

Cadena GPS: $PGRMZ,,f,1*29

Cadena GPS: $GPRTE,1,1,c,*37

Cadena GPS: $GPRMC,,V,,,,,,,,2.4,W,N*2C

Cadena GPS: $GPRMB,V,,,,,,,,,,,,V,N*04

Cadena GPS: $GPGGA,,,,,,0,12,,,M,,M,,*65

Campos parseo :[$GPGGA, , , , , , 0, 12, , , M, , M, , *65]
LatitudPhi: 0.0 LongitudLambda: 0.0
a 6378388.0 e2 0.00672267 phi 0.0
Lambda0 -3.0
Lambda0 (radianes) -0.05235987755982988
e' 0.006768170174587595
N 6378388.0
T 0.0
C 0.006768170174587595
A 0.05235987755982988
M 0.0
UTM Norte: 0.0
UTM Este : 833991.7043777229
Cadena GPS: $GPGSA,A,1,02,05,08,10,16,18,23,26,27,28,31,33,,,*16

Cadena GPS: $GPGSV,3,1,12,02,20,044,00,05,02,028,00,08,09,269,00,10,12,151,20*7C

Cadena GPS: $GPGSV,3,2,12,16,56,315,00,18,60,059,00,23,25,121,00,26,84,140,00*72

Cadena GPS: $GPGSV,3,3,12,27,39,279,00,28,14,185,25,31,24,192,15,33,65,090,00*7D

Cadena GPS: $GPGLL,,,,,,V,N*64

Cadena GPS: $GPBOD,,T,,M,,*47

Cadena GPS: $PGRME,,M,,M,,M*00

Cadena GPS: $PGRMZ,,f,1*29

Cadena GPS: $GPRTE,1,1,c,*37

Cadena GPS: $GPRMC,,V,,,,,,,,2.4,W,N*2C

Cadena GPS: $GPRMB,V,,,,,,,,,,,,V,N*04

Cadena GPS: $GPGGA,,,,,,0,12,,,M,,M,,*65

Campos parseo :[$GPGGA, , , , , , 0, 12, , , M, , M, , *65]
LatitudPhi: 0.0 LongitudLambda: 0.0
a 6378388.0 e2 0.00672267 phi 0.0
Lambda0 -3.0
Lambda0 (radianes) -0.05235987755982988
e' 0.006768170174587595
N 6378388.0
T 0.0
C 0.006768170174587595
A 0.05235987755982988
M 0.0
UTM Norte: 0.0
UTM Este : 833991.7043777229
Cadena GPS: $GPGSA,A,1,02,05,08,10,16,18,23,26,27,28,31,33,,,*16

Cadena GPS: $GPGSV,3,1,12,02,20,044,00,05,02,028,00,08,09,269,00,10,12,151,22*7E

Cadena GPS: $GPGSV,3,2,12,16,56,315,00,18,60,059,00,23,25,121,00,26,84,140,00*72

Cadena GPS: $GPGSV,3,3,12,27,39,279,00,28,14,185,27,31,24,192,14,33,65,090,00*7E

Cadena GPS: $GPGLL,,,,,,V,N*64

Cadena GPS: $GPBOD,,T,,M,,*47

Cadena GPS: $PGRME,,M,,M,,M*00

Cadena GPS: $PGRMZ,,f,1*29

Cadena GPS: $GPRTE,1,1,c,*37

Cadena GPS: $GPRMC,,V,,,,,,,,2.4,W,N*2C

Cadena GPS: $GPRMB,V,,,,,,,,,,,,V,N*04

Cadena GPS: $GPGGA,,,,,,0,12,,,M,,M,,*65

Campos parseo :[$GPGGA, , , , , , 0, 12, , , M, , M, , *65]
LatitudPhi: 0.0 LongitudLambda: 0.0
a 6378388.0 e2 0.00672267 phi 0.0
Lambda0 -3.0
Lambda0 (radianes) -0.05235987755982988
e' 0.006768170174587595
N 6378388.0
T 0.0
C 0.006768170174587595
A 0.05235987755982988
M 0.0
UTM Norte: 0.0
UTM Este : 833991.7043777229
Cadena GPS: $GPGSA,A,1,02,05,08,10,16,18,23,26,27,28,31,33,,,*16

Cadena GPS: $GPGSV,3,1,12,02,20,044,00,05,02,028,00,08,09,269,00,10,12,151,22*7E

Cadena GPS: $GPGSV,3,2,12,16,56,315,00,18,60,059,00,23,25,121,00,26,84,140,00*72

Cadena GPS: $GPGSV,3,3,12,27,39,279,00,28,14,185,26,31,24,192,14,33,65,090,00*7F

Cadena GPS: $GPGLL,,,,,,V,N*64

Cadena GPS: $GPBOD,,T,,M,,*47

Cadena GPS: $PGRME,,M,,M,,M*00

Cadena GPS: $PGRMZ,,f,1*29

Cadena GPS: $GPRTE,1,1,c,*37

Cadena GPS: $GPRMC,,V,,,,,,,,2.4,W,N*2C

Cadena GPS: $GPRMB,V,,,,,,,,,,,,V,N*04

Cadena GPS: $GPGGA,,,,,,0,12,,,M,,M,,*65

Campos parseo :[$GPGGA, , , , , , 0, 12, , , M, , M, , *65]
LatitudPhi: 0.0 LongitudLambda: 0.0
a 6378388.0 e2 0.00672267 phi 0.0
Lambda0 -3.0
Lambda0 (radianes) -0.05235987755982988
e' 0.006768170174587595
N 6378388.0
T 0.0
C 0.006768170174587595
A 0.05235987755982988
M 0.0
UTM Norte: 0.0
UTM Este : 833991.7043777229
Cadena GPS: $GPGSA,A,1,02,05,08,10,16,18,23,26,27,28,31,33,,,*16

Cadena GPS: $GPGSV,3,1,12,02,20,044,00,05,02,028,00,08,09,269,00,10,12,151,21*7D

Cadena GPS: $GPGSV,3,2,12,16,56,315,00,18,60,059,00,23,26,120,00,26,84,140,00*70

Cadena GPS: $GPGSV,3,3,12,27,39,279,00,28,14,185,25,31,24,192,13,33,65,090,00*7B

Cadena GPS: $GPGLL,,,,,,V,N*64

Cadena GPS: $GPBOD,,T,,M,,*47
